{
"type": "FeatureCollection",
"crs": { "type": "name", "properties": { "name": "urn:ogc:def:crs:OGC:1.3:CRS84" } },
                                                                                
"features": [
{ "type": "Feature", "properties": { "id": 1, "nombre": "Jose Rafael Araya", "tipo": "Escuela", "cat": 192, "NDISTRITO": "SAN JUAN" }, "geometry": { "type": "Point", "coordinates": [ -84.063828130050808, 9.963219655724995 ] } },
{ "type": "Feature", "properties": { "id": 2, "nombre": "Escuela La Florida de Tibás", "tipo": "Escuela", "cat": 192, "NDISTRITO": "SAN JUAN" }, "geometry": { "type": "Point", "coordinates": [ -84.064819776727049, 9.963482322393753 ] } },
{ "type": "Feature", "properties": { "id": 4, "nombre": "Escuela Jesús Jiménez", "tipo": "Escuela", "cat": 192, "NDISTRITO": "SAN JUAN" }, "geometry": { "type": "Point", "coordinates": [ -84.082143934879852, 9.966156105623387 ] } },
{ "type": "Feature", "properties": { "id": 9, "nombre": "Escuela Anselmo Llorente", "tipo": "Escuela", "cat": 203, "NDISTRITO": "ANSELMO LLORENTE" }, "geometry": { "type": "Point", "coordinates": [ -84.070044038803687, 9.955156260605012 ] } },
{ "type": "Feature", "properties": { "id": 11, "nombre": "Escuela Kamuk", "tipo": "Escuela", "cat": 203, "NDISTRITO": "ANSELMO LLORENTE" }, "geometry": { "type": "Point", "coordinates": [ -84.069145269445031, 9.958395086462815 ] } },
{ "type": "Feature", "properties": { "id": 18, "nombre": "Escuela Miguel Obregón", "tipo": "Escuela", "cat": 192, "NDISTRITO": "SAN JUAN" }, "geometry": { "type": "Point", "coordinates": [ -84.079646203727137, 9.960376283051799 ] } },
{ "type": "Feature", "properties": { "id": 23, "nombre": "Escuela Cuatro Reinas", "tipo": "Escuela", "cat": 355, "NDISTRITO": "COLIMA" }, "geometry": { "type": "Point", "coordinates": [ -84.092034324871179, 9.961653264815558 ] } },
{ "type": "Feature", "properties": { "id": 25, "nombre": "Escuela León XII", "tipo": "Escuela", "cat": 354, "NDISTRITO": "LEON XIII" }, "geometry": { "type": "Point", "coordinates": [ -84.098511527174537, 9.960542469352523 ] } },
{ "type": "Feature", "properties": { "id": 29, "nombre": "Escuela de Colima", "tipo": "Escuela", "cat": 355, "NDISTRITO": "COLIMA" }, "geometry": { "type": "Point", "coordinates": [ -84.086842765191705, 9.953151128595842 ] } },
{ "type": "Feature", "properties": { "id": 30, "nombre": "Escuela Esmeralda Oreamuno", "tipo": "Escuela", "cat": 351, "NDISTRITO": "CINCO ESQUINAS" }, "geometry": { "type": "Point", "coordinates": [ -84.080652952039543, 9.946857152510082 ] } },
{ "type": "Feature", "properties": { "id": 33, "nombre": "Liceo Mauro Fernández Acuña", "tipo": "Escuela", "cat": 192, "NDISTRITO": "SAN JUAN" }, "geometry": { "type": "Point", "coordinates": [ -84.08065672941018, 9.956856138567732 ] } }
]
}
